{
  "type": "FeatureCollection",
  "name": "maetore_2026-07-22_eveningOut_route",
  "features": [
    {
      "type": "Feature",
      "geometry": {
        "type": "Point",
        "coordinates": [
          29.5160153,
          -23.8978861
        ]
      },
      "properties": {
        "sequence": 1,
        "type": "pickup",
        "name": "Sasol R71",
        "passenger_count": 2,
        "passengers": "Sensory Vukeya, Asher Malungani",
        "note": "Outbound pickup ordered by distance from R71"
      }
    },
    {
      "type": "Feature",
      "geometry": {
        "type": "Point",
        "coordinates": [
          29.5055955,
          -23.9081105
        ]
      },
      "properties": {
        "sequence": 2,
        "type": "dropoff",
        "name": "Asher Malungani dropoff",
        "passenger_count": 1,
        "passengers": "Asher Malungani",
        "note": "Serala View dropoff"
      }
    },
    {
      "type": "Feature",
      "geometry": {
        "type": "Point",
        "coordinates": [
          29.4754902,
          -23.9133595
        ]
      },
      "properties": {
        "sequence": 3,
        "type": "pickup",
        "name": "SSI Security",
        "passenger_count": 1,
        "passengers": "Johannes Ramoraswi",
        "note": "Outbound pickup ordered by distance from R71"
      }
    },
    {
      "type": "Feature",
      "geometry": {
        "type": "Point",
        "coordinates": [
          29.3998672,
          -23.8791688
        ]
      },
      "properties": {
        "sequence": 4,
        "type": "dropoff",
        "name": "Johannes Ramoraswi dropoff",
        "passenger_count": 1,
        "passengers": "Johannes Ramoraswi",
        "note": "Ext 76 dropoff"
      }
    },
    {
      "type": "Feature",
      "geometry": {
        "type": "Point",
        "coordinates": [
          29.3993861,
          -23.8799718
        ]
      },
      "properties": {
        "sequence": 5,
        "type": "dropoff",
        "name": "Sensory Vukeya dropoff",
        "passenger_count": 1,
        "passengers": "Sensory Vukeya",
        "note": "Ext 76 dropoff"
      }
    }
  ]
}
